[{"category": "restaurant", "name": "Guinness Storehouse", "hours": {"opening": "930", "closing": "1700"}, "geoLocation": {"longitude": -6.2867, "latitude": 53.3419}, "duration": 90, "bestTimeToVisit": {"day": "afternoon", "season": "all"}, "review": 4.5, "wayToGetThere": {"best": "public transportation", "suggested": "public transportation"}, "Price": 1, "suitableAge": "All"}, {"category": "restaurant", "name": "Jameson Distillery Bow St.", "hours": {"opening": "1000", "closing": "1730"}, "geoLocation": {"longitude": -6.2774, "latitude": 53.3484}, "duration": 40, "bestTimeToVisit": {"day": "all", "season": "all"}, "review": 4.5, "wayToGetThere": {"best": "public transportation", "suggested": "public transportation"}, "Price": 2, "suitableAge": "All"}, {"category": "restaurant", "name": "Caf\u00c3\u00a9 en Seine", "hours": {"opening": "1200", "closing": "2330"}, "geoLocation": {"longitude": -6.25862, "latitude": 53.340895}, "duration": 120, "bestTimeToVisit": {"day": "night", "season": "all"}, "review": 4.2, "wayToGetThere": {"best": "public transportation", "suggested": "public transportation"}, "Price": 2, "suitableAge": "Adult"}, {"category": "restaurant", "name": "Berlin D2", "hours": {"opening": "1600", "closing": "230"}, "geoLocation": {"longitude": -6.265515, "latitude": 53.344266}, "duration": 120, "bestTimeToVisit": {"day": "night", "season": "all"}, "review": 4.0, "wayToGetThere": {"best": "public transportation", "suggested": "public transportation"}, "Price": 1, "suitableAge": "Adult"}, {"category": "restaurant", "name": "The Living Room", "hours": {"opening": "1000", "closing": "0"}, "geoLocation": {"longitude": -6.260304, "latitude": 53.352531}, "duration": 120, "bestTimeToVisit": {"day": "night", "season": "all"}, "review": 4.2, "wayToGetThere": {"best": "public transportation", "suggested": "public transportation"}, "Price": 1, "suitableAge": "Adult"}, {"category": "landmark", "name": "Spire", "hours": {"opening": "0", "closing": "2359"}, "geoLocation": {"longitude": -6.260255, "latitude": 53.350027}, "duration": 15, "bestTimeToVisit": {"day": "evening", "season": "summer"}, "review": 4.1, "wayToGetThere": {"best": "walk", "suggested": "walk"}, "Price": 0, "suitableAge": "All"}, {"category": "landmark", "name": "Trinity College", "hours": {"opening": "900", "closing": "1700"}, "geoLocation": {"longitude": -6.254572, "latitude": 53.343986}, "duration": 90, "bestTimeToVisit": {"day": "morning", "season": "summer"}, "review": 4.5, "wayToGetThere": {"best": "walk", "suggested": "walk"}, "Price": 0, "suitableAge": "All"}, {"category": "landmark", "name": "Kilmainham Gaol", "hours": {"opening": "930", "closing": "1800"}, "geoLocation": {"longitude": -6.309794, "latitude": 53.342062}, "duration": 90, "bestTimeToVisit": {"day": "afternoon", "season": "summer"}, "review": 4.5, "wayToGetThere": {"best": "public transportation", "suggested": "public transportation"}, "Price": 1, "suitableAge": "All"}, {"category": "landmark", "name": "Temple Bar Area", "hours": {"opening": "0", "closing": "2359"}, "geoLocation": {"longitude": -6.267448, "latitude": 53.345253}, "duration": 60, "bestTimeToVisit": {"day": "night", "season": "summer"}, "review": 4.5, "wayToGetThere": {"best": "walk", "suggested": "walk"}, "Price": 1, "suitableAge": "Adult"}, {"category": "landmark", "name": "Molly Malone Statue", "hours": {"opening": "0", "closing": "2359"}, "geoLocation": {"longitude": -6.260992, "latitude": 53.343808}, "duration": 10, "bestTimeToVisit": {"day": "morning", "season": "summer"}, "review": 4.3, "wayToGetThere": {"best": "walk", "suggested": "walk"}, "Price": 0, "suitableAge": "All"}, {"category": "landmark", "name": "Samuel Beckett Bridge", "hours": {"opening": "0", "closing": "2359"}, "geoLocation": {"longitude": -6.241403, "latitude": 53.347109}, "duration": 15, "bestTimeToVisit": {"day": "evening", "season": "summer"}, "review": 4.6, "wayToGetThere": {"best": "public transportation", "suggested": "public transportation"}, "Price": 0, "suitableAge": "All"}, {"category": "landmark", "name": "The Custom House", "hours": {"opening": "900", "closing": "1700"}, "geoLocation": {"longitude": -6.253128, "latitude": 53.348877}, "duration": 30, "bestTimeToVisit": {"day": "morning", "season": "winter"}, "review": 4.4, "wayToGetThere": {"best": "walk", "suggested": "walk"}, "Price": 0, "suitableAge": "All"}, {"category": "landmark", "name": "Ha'penny Bridge", "hours": {"opening": "0", "closing": "2359"}, "geoLocation": {"longitude": -6.263119, "latitude": 53.346483}, "duration": 15, "bestTimeToVisit": {"day": "evening", "season": "summer"}, "review": 4.4, "wayToGetThere": {"best": "walk", "suggested": "walk"}, "Price": 0, "suitableAge": "All"}, {"category": "landmark", "name": "Aviva Stadium", "hours": {"opening": "1000", "closing": "1500"}, "geoLocation": {"longitude": -6.228403, "latitude": 53.335386}, "duration": 75, "bestTimeToVisit": {"day": "afternoon", "season": "summer"}, "review": 4.6, "wayToGetThere": {"best": "public transportation", "suggested": "public transportation"}, "Price": 1, "suitableAge": "All"}, {"category": "landmark", "name": "Poolbeg Lighthouse", "hours": {"opening": "0", "closing": "2359"}, "geoLocation": {"longitude": -6.151346, "latitude": 53.342317}, "duration": 90, "bestTimeToVisit": {"day": "evening", "season": "summer"}, "review": 4.7, "wayToGetThere": {"best": "car", "suggested": "car"}, "Price": 1, "suitableAge": "All"}, {"category": "nature", "name": "St. Stephen's Green", "hours": {"opening": "800", "closing": "2359"}, "geoLocation": {"longitude": -6.2591, "latitude": 53.3382}, "duration": 30, "bestTimeToVisit": {"day": "afternoon", "season": "summer"}, "review": 4.8, "wayToGetThere": {"best": "public transportation", "suggested": "public transportation"}, "Price": 0, "suitableAge": "All"}, {"category": "nature", "name": "Phoenix Park", "hours": {"opening": "800", "closing": "2359"}, "geoLocation": {"longitude": -6.3298, "latitude": 53.3559}, "duration": 60, "bestTimeToVisit": {"day": "afternoon", "season": "summer"}, "review": 4.3, "wayToGetThere": {"best": "walk", "suggested": "walk"}, "Price": 0, "suitableAge": "All"}, {"category": "nature", "name": "Merrion Square", "hours": {"opening": "800", "closing": "2359"}, "geoLocation": {"longitude": -6.249, "latitude": 53.3396}, "duration": 15, "bestTimeToVisit": {"day": "afternoon", "season": "summer"}, "review": 4.1, "wayToGetThere": {"best": "walk", "suggested": "walk"}, "Price": 0, "suitableAge": "All"}, {"category": "nature", "name": "Irish National War Memorial Gardens", "hours": {"opening": "800", "closing": "2359"}, "geoLocation": {"longitude": -6.3135, "latitude": 53.3456}, "duration": 30, "bestTimeToVisit": {"day": "afternoon", "season": "summer"}, "review": 4.9, "wayToGetThere": {"best": "walk", "suggested": "walk"}, "Price": 0, "suitableAge": "All"}, {"category": "nature", "name": "National Botanic Gardens", "hours": {"opening": "1000", "closing": "1630"}, "geoLocation": {"longitude": -6.2719, "latitude": 53.3725}, "duration": 45, "bestTimeToVisit": {"day": "afternoon", "season": "summer"}, "review": 4.8, "wayToGetThere": {"best": "walk", "suggested": "walk"}, "Price": 0, "suitableAge": "All"}, {"category": "nature", "name": "Sandymount Green", "hours": {"opening": "800", "closing": "2359"}, "geoLocation": {"longitude": -6.2219696, "latitude": 53.34138972}, "duration": 60, "bestTimeToVisit": {"day": "afternoon", "season": "summer"}, "review": 4.6, "wayToGetThere": {"best": "walk", "suggested": "walk"}, "Price": 0, "suitableAge": "All"}, {"category": "nature", "name": "Ticknock Hill", "hours": {"opening": "800", "closing": "2359"}, "geoLocation": {"longitude": -6.255942198, "latitude": 53.25954502}, "duration": 300, "bestTimeToVisit": {"day": "afternoon", "season": "summer"}, "review": 4.5, "wayToGetThere": {"best": "car", "suggested": "car"}, "Price": 1, "suitableAge": "All"}, {"category": "nature", "name": "Dublin Zoo", "hours": {"opening": "930", "closing": "1800"}, "geoLocation": {"longitude": -6.3053, "latitude": 53.3562}, "duration": 120, "bestTimeToVisit": {"day": "afternoon", "season": "summer"}, "review": 4.1, "wayToGetThere": {"best": "public transportation", "suggested": "public transportation"}, "Price": 2, "suitableAge": "All"}, {"category": "nature", "name": "Howth", "hours": {"opening": "800", "closing": "2359"}, "geoLocation": {"longitude": -6.057, "latitude": 53.3786}, "duration": 300, "bestTimeToVisit": {"day": "afternoon", "season": "summer"}, "review": 4.6, "wayToGetThere": {"best": "public transportation", "suggested": "public transportation"}, "Price": 2, "suitableAge": "All"}, {"category": "nature", "name": "SEA Life Bray", "hours": {"opening": "1100", "closing": "1700"}, "geoLocation": {"longitude": -6.0982, "latitude": 53.2034}, "duration": 90, "bestTimeToVisit": {"day": "afternoon", "season": "summer"}, "review": 3.5, "wayToGetThere": {"best": "public transportation", "suggested": "public transportation"}, "Price": 1, "suitableAge": "All"}, {"category": "restaurant", "name": "Xian Street Food Dublin", "hours": {"opening": "1200", "closing": "2359"}, "geoLocation": {"longitude": -6.259711, "latitude": 53.341071}, "duration": 120, "bestTimeToVisit": {"day": "evening", "season": "all"}, "review": 4.5, "wayToGetThere": {"best": "public transportation", "suggested": "public transportation"}, "Price": 1, "suitableAge": "All"}, {"category": "restaurant", "name": "Beshoff Bros", "hours": {"opening": "900", "closing": "2300"}, "geoLocation": {"longitude": -6.265982, "latitude": 53.344392}, "duration": 60, "bestTimeToVisit": {"day": "all", "season": "all"}, "review": 4.5, "wayToGetThere": {"best": "public transportation", "suggested": "public transportation"}, "Price": 1, "suitableAge": "All"}, {"category": "restaurant", "name": "Mamas Revenge", "hours": {"opening": "1000", "closing": "2000"}, "geoLocation": {"longitude": -6.2538, "latitude": 53.3419}, "duration": 60, "bestTimeToVisit": {"day": "all", "season": "all"}, "review": 4.5, "wayToGetThere": {"best": "public transportation", "suggested": "public transportation"}, "Price": 1, "suitableAge": "All"}, {"category": "restaurant", "name": "The Vintage Teapot", "hours": {"opening": "930", "closing": "2000"}, "geoLocation": {"longitude": -6.2597, "latitude": 53.3504}, "duration": 60, "bestTimeToVisit": {"day": "all", "season": "all"}, "review": 4.5, "wayToGetThere": {"best": "public transportation", "suggested": "public transportation"}, "Price": 2, "suitableAge": "All"}, {"category": "restaurant", "name": "Kimchi Hophouse", "hours": {"opening": "1200", "closing": "2230"}, "geoLocation": {"longitude": -6.261043, "latitude": 53.353978}, "duration": 90, "bestTimeToVisit": {"day": "all", "season": "all"}, "review": 4.4, "wayToGetThere": {"best": "public transportation", "suggested": "public transportation"}, "Price": 2, "suitableAge": "All"}, {"category": "restaurant", "name": "Brother Hubbard South", "hours": {"opening": "830", "closing": "1600"}, "geoLocation": {"longitude": -6.265528, "latitude": 53.332865}, "duration": 60, "bestTimeToVisit": {"day": "all", "season": "all"}, "review": 4.4, "wayToGetThere": {"best": "public transportation", "suggested": "public transportation"}, "Price": 2, "suitableAge": "All"}, {"category": "shopping", "name": "Stephen's Green Shopping Centre", "hours": {"opening": "900", "closing": "1900"}, "geoLocation": {"longitude": -6.261419, "latitude": 53.34014}, "duration": 30, "bestTimeToVisit": {"day": "afternoon", "season": "all"}, "review": 4.1, "wayToGetThere": {"best": "walk", "suggested": "walk"}, "Price": 2, "suitableAge": "All"}, {"category": "shopping", "name": "Powerscourt Centre", "hours": {"opening": "1000", "closing": "1800"}, "geoLocation": {"longitude": -6.261221, "latitude": 53.342141}, "duration": 45, "bestTimeToVisit": {"day": "afternoon", "season": "all"}, "review": 4.3, "wayToGetThere": {"best": "", "suggested": ""}, "Price": 2, "suitableAge": "All"}, {"category": "shopping", "name": "Jervis Shopping Centre", "hours": {"opening": "900", "closing": "1830"}, "geoLocation": {"longitude": -6.265215, "latitude": 53.348541}, "duration": 60, "bestTimeToVisit": {"day": "afternoon", "season": "all"}, "review": 4.2, "wayToGetThere": {"best": "", "suggested": ""}, "Price": 2, "suitableAge": "All"}, {"category": "shopping", "name": "George's Street Arcade", "hours": {"opening": "900", "closing": "1830"}, "geoLocation": {"longitude": -6.263913, "latitude": 53.342483}, "duration": 30, "bestTimeToVisit": {"day": "afternoon", "season": "all"}, "review": 4.2, "wayToGetThere": {"best": "", "suggested": ""}, "Price": 1, "suitableAge": "All"}, {"category": "shopping", "name": "Royal Hibernian Way Shopping Centre", "hours": {"opening": "800", "closing": "1800"}, "geoLocation": {"longitude": -6.258368, "latitude": 53.341355}, "duration": 30, "bestTimeToVisit": {"day": "afternoon", "season": "all"}, "review": 4.4, "wayToGetThere": {"best": "", "suggested": ""}, "Price": 1, "suitableAge": "All"}, {"category": "shopping", "name": "Ilac Shopping Centre", "hours": {"opening": "900", "closing": "1830"}, "geoLocation": {"longitude": -6.262796, "latitude": 53.350405}, "duration": 30, "bestTimeToVisit": {"day": "afternoon", "season": "all"}, "review": 4.0, "wayToGetThere": {"best": "", "suggested": ""}, "Price": 1, "suitableAge": "All"}, {"category": "shopping", "name": "The Westbury Mall", "hours": {"opening": "800", "closing": "1800"}, "geoLocation": {"longitude": -6.260692, "latitude": 53.341664}, "duration": 45, "bestTimeToVisit": {"day": "afternoon", "season": "all"}, "review": 4.3, "wayToGetThere": {"best": "", "suggested": ""}, "Price": 2, "suitableAge": "All"}, {"category": "shopping", "name": "Moore Street Shopping Mall", "hours": {"opening": "1000", "closing": "1900"}, "geoLocation": {"longitude": -6.262978, "latitude": 53.351385}, "duration": 45, "bestTimeToVisit": {"day": "afternoon", "season": "all"}, "review": 3.9, "wayToGetThere": {"best": "", "suggested": ""}, "Price": 1, "suitableAge": "All"}, {"category": "shopping", "name": "Point Square Dublin", "hours": {"opening": "800", "closing": "2300"}, "geoLocation": {"longitude": -6.228373, "latitude": 53.348365}, "duration": 30, "bestTimeToVisit": {"day": "afternoon", "season": "all"}, "review": 4.0, "wayToGetThere": {"best": "", "suggested": ""}, "Price": 1, "suitableAge": "All"}, {"category": "shopping", "name": "Swan Shopping Center", "hours": {"opening": "900", "closing": "2100"}, "geoLocation": {"longitude": -6.264928, "latitude": 53.323137}, "duration": 30, "bestTimeToVisit": {"day": "afternoon", "season": "all"}, "review": 3.9, "wayToGetThere": {"best": "", "suggested": ""}, "Price": 2, "suitableAge": "All"}, {"category": "theatre", "name": "Bord G\u00c3\u00a1is Energy Theatre", "hours": {"opening": "0", "closing": "2359"}, "geoLocation": {"longitude": -6.240274, "latitude": 53.344201}, "duration": 60, "bestTimeToVisit": {"day": "all", "season": "all"}, "review": 4.6, "wayToGetThere": {"best": "", "suggested": ""}, "Price": 1, "suitableAge": "All"}, {"category": "theatre", "name": "3Arena", "hours": {"opening": "0", "closing": "2359"}, "geoLocation": {"longitude": -6.228482, "latitude": 53.347512}, "duration": 120, "bestTimeToVisit": {"day": "all", "season": "all"}, "review": 4.5, "wayToGetThere": {"best": "", "suggested": ""}, "Price": 0, "suitableAge": "All"}, {"category": "theatre", "name": "The Academy", "hours": {"opening": "0", "closing": "2359"}, "geoLocation": {"longitude": -6.261853, "latitude": 53.34805}, "duration": 90, "bestTimeToVisit": {"day": "all", "season": "all"}, "review": 4.2, "wayToGetThere": {"best": "", "suggested": ""}, "Price": 0, "suitableAge": "All"}, {"category": "theatre", "name": "Olympia Theatre", "hours": {"opening": "0", "closing": "2359"}, "geoLocation": {"longitude": -6.266114, "latitude": 53.344318}, "duration": 60, "bestTimeToVisit": {"day": "all", "season": "all"}, "review": 4.5, "wayToGetThere": {"best": "", "suggested": ""}, "Price": 1, "suitableAge": "All"}, {"category": "theatre", "name": "The Abbey Theatre Dublin", "hours": {"opening": "0", "closing": "2359"}, "geoLocation": {"longitude": -6.257107, "latitude": 53.34854}, "duration": 60, "bestTimeToVisit": {"day": "all", "season": "all"}, "review": 4.7, "wayToGetThere": {"best": "", "suggested": ""}, "Price": 2, "suitableAge": "All"}, {"category": "theatre", "name": "Gaiety Theatre", "hours": {"opening": "0", "closing": "2359"}, "geoLocation": {"longitude": -6.261572, "latitude": 53.340453}, "duration": 120, "bestTimeToVisit": {"day": "all", "season": "all"}, "review": 4.5, "wayToGetThere": {"best": "", "suggested": ""}, "Price": 1, "suitableAge": "All"}, {"category": "theatre", "name": "Liberty Hall Theatre", "hours": {"opening": "0", "closing": "2359"}, "geoLocation": {"longitude": -6.26031, "latitude": 53.349805}, "duration": 90, "bestTimeToVisit": {"day": "all", "season": "all"}, "review": 4.3, "wayToGetThere": {"best": "", "suggested": ""}, "Price": 1, "suitableAge": "All"}, {"category": "theatre", "name": "Ambassador Theatre", "hours": {"opening": "0", "closing": "2359"}, "geoLocation": {"longitude": -6.261987, "latitude": 53.352809}, "duration": 120, "bestTimeToVisit": {"day": "all", "season": "all"}, "review": 4.0, "wayToGetThere": {"best": "", "suggested": ""}, "Price": 0, "suitableAge": "All"}, {"category": "theatre", "name": "National Concert Hall", "hours": {"opening": "0", "closing": "2359"}, "geoLocation": {"longitude": -6.259216, "latitude": 53.334718}, "duration": 60, "bestTimeToVisit": {"day": "all", "season": "all"}, "review": 4.6, "wayToGetThere": {"best": "", "suggested": ""}, "Price": 2, "suitableAge": "All"}]