[{"category": "landmark", "name": "Spire", "hours": {"opening": "0", "closing": "2359"}, "geoLocation": {"longitude": -6.26026, "latitude": 53.35003}, "duration": 15, "bestTimeToVisit": {"day": "evening", "season": "summer"}, "review": 4.1, "wayToGetThere": {"best": "walk", "suggested": "walk"}, "Price": 0.0, "suitableAge": "All"}, {"category": "landmark", "name": "Trinity College", "hours": {"opening": "900", "closing": "1700"}, "geoLocation": {"longitude": -6.25457, "latitude": 53.34399}, "duration": 90, "bestTimeToVisit": {"day": "morning", "season": "summer"}, "review": 4.5, "wayToGetThere": {"best": "walk", "suggested": "walk"}, "Price": 14.0, "suitableAge": "All"}, {"category": "landmark", "name": "Kilmainham Gaol", "hours": {"opening": "930", "closing": "1800"}, "geoLocation": {"longitude": -6.30979, "latitude": 53.34206}, "duration": 90, "bestTimeToVisit": {"day": "afternoon", "season": "summer"}, "review": 4.5, "wayToGetThere": {"best": "public transportation", "suggested": "public transportation"}, "Price": 8.0, "suitableAge": "All"}, {"category": "landmark", "name": "Temple Bar Area", "hours": {"opening": "0", "closing": "2359"}, "geoLocation": {"longitude": -6.26745, "latitude": 53.34525}, "duration": 60, "bestTimeToVisit": {"day": "night", "season": "summer"}, "review": 4.5, "wayToGetThere": {"best": "walk", "suggested": "walk"}, "Price": 0.0, "suitableAge": "Adult"}, {"category": "landmark", "name": "Molly Malone Statue", "hours": {"opening": "0", "closing": "2359"}, "geoLocation": {"longitude": -6.26099, "latitude": 53.34381}, "duration": 10, "bestTimeToVisit": {"day": "morning", "season": "summer"}, "review": 4.3, "wayToGetThere": {"best": "walk", "suggested": "walk"}, "Price": 0.0, "suitableAge": "All"}, {"category": "landmark", "name": "Samuel Beckett Bridge", "hours": {"opening": "0", "closing": "2359"}, "geoLocation": {"longitude": -6.2414, "latitude": 53.34711}, "duration": 15, "bestTimeToVisit": {"day": "evening", "season": "summer"}, "review": 4.6, "wayToGetThere": {"best": "public transportation", "suggested": "public transportation"}, "Price": 0.0, "suitableAge": "All"}, {"category": "landmark", "name": "The Custom House", "hours": {"opening": "900", "closing": "1700"}, "geoLocation": {"longitude": -6.25313, "latitude": 53.34888}, "duration": 30, "bestTimeToVisit": {"day": "morning", "season": "winter"}, "review": 4.4, "wayToGetThere": {"best": "walk", "suggested": "walk"}, "Price": 1.0, "suitableAge": "All"}, {"category": "landmark", "name": "Ha'penny Bridge", "hours": {"opening": "0", "closing": "2359"}, "geoLocation": {"longitude": -6.26312, "latitude": 53.34648}, "duration": 15, "bestTimeToVisit": {"day": "evening", "season": "summer"}, "review": 4.4, "wayToGetThere": {"best": "walk", "suggested": "walk"}, "Price": 0.0, "suitableAge": "All"}, {"category": "landmark", "name": "Aviva Stadium", "hours": {"opening": "1000", "closing": "1500"}, "geoLocation": {"longitude": -6.2284, "latitude": 53.33539}, "duration": 75, "bestTimeToVisit": {"day": "afternoon", "season": "summer"}, "review": 4.6, "wayToGetThere": {"best": "public transportation", "suggested": "public transportation"}, "Price": 10.0, "suitableAge": "All"}, {"category": "landmark", "name": "Poolbeg Lighthouse", "hours": {"opening": "0", "closing": "2359"}, "geoLocation": {"longitude": -6.15135, "latitude": 53.34232}, "duration": 90, "bestTimeToVisit": {"day": "evening", "season": "summer"}, "review": 4.7, "wayToGetThere": {"best": "car", "suggested": "car"}, "Price": 0.0, "suitableAge": "All"}, {"category": "nature/park", "name": "St. Stephen's Green", "hours": {"opening": "800", "closing": "2359"}, "geoLocation": {"longitude": -6.2591, "latitude": 53.3382}, "duration": 30, "bestTimeToVisit": {"day": "afternoon", "season": "summer"}, "review": 4.8, "wayToGetThere": {"best": "public transportation", "suggested": "public transportation"}, "Price": 0.0, "suitableAge": "All"}, {"category": "nature/park", "name": "Phoenix Park", "hours": {"opening": "800", "closing": "2359"}, "geoLocation": {"longitude": -6.3298, "latitude": 53.3559}, "duration": 60, "bestTimeToVisit": {"day": "afternoon", "season": "summer"}, "review": 4.3, "wayToGetThere": {"best": "walk", "suggested": "walk"}, "Price": 0.0, "suitableAge": "All"}, {"category": "nature/park", "name": "Merrion Square", "hours": {"opening": "800", "closing": "2359"}, "geoLocation": {"longitude": -6.249, "latitude": 53.3396}, "duration": 15, "bestTimeToVisit": {"day": "afternoon", "season": "summer"}, "review": 4.1, "wayToGetThere": {"best": "walk", "suggested": "walk"}, "Price": 0.0, "suitableAge": "All"}, {"category": "nature/park", "name": "Irish National War Memorial Gardens", "hours": {"opening": "800", "closing": "2359"}, "geoLocation": {"longitude": -6.3135, "latitude": 53.3456}, "duration": 30, "bestTimeToVisit": {"day": "afternoon", "season": "summer"}, "review": 4.9, "wayToGetThere": {"best": "walk", "suggested": "walk"}, "Price": 0.0, "suitableAge": "All"}, {"category": "nature/park", "name": "National Botanic Gardens", "hours": {"opening": "1000", "closing": "1630"}, "geoLocation": {"longitude": -6.2719, "latitude": 53.3725}, "duration": 45, "bestTimeToVisit": {"day": "afternoon", "season": "summer"}, "review": 4.8, "wayToGetThere": {"best": "walk", "suggested": "walk"}, "Price": 0.0, "suitableAge": "All"}, {"category": "nature/park", "name": "Sandymount Green", "hours": {"opening": "800", "closing": "2359"}, "geoLocation": {"longitude": -6.22197, "latitude": 53.34139}, "duration": 60, "bestTimeToVisit": {"day": "afternoon", "season": "summer"}, "review": 4.6, "wayToGetThere": {"best": "walk", "suggested": "walk"}, "Price": 0.0, "suitableAge": "All"}, {"category": "nature/park", "name": "Ticknock Hill", "hours": {"opening": "800", "closing": "2359"}, "geoLocation": {"longitude": -6.25594, "latitude": 53.25955}, "duration": 300, "bestTimeToVisit": {"day": "afternoon", "season": "summer"}, "review": 4.5, "wayToGetThere": {"best": "car", "suggested": "car"}, "Price": 0.0, "suitableAge": "All"}, {"category": "nature/park", "name": "Dublin Zoo", "hours": {"opening": "930", "closing": "1800"}, "geoLocation": {"longitude": -6.3053, "latitude": 53.3562}, "duration": 120, "bestTimeToVisit": {"day": "afternoon", "season": "summer"}, "review": 4.1, "wayToGetThere": {"best": "public transportation", "suggested": "public transportation"}, "Price": 19.5, "suitableAge": "All"}, {"category": "nature/park", "name": "Howth", "hours": {"opening": "800", "closing": "2359"}, "geoLocation": {"longitude": -6.057, "latitude": 53.3786}, "duration": 300, "bestTimeToVisit": {"day": "afternoon", "season": "summer"}, "review": 4.6, "wayToGetThere": {"best": "public transportation", "suggested": "public transportation"}, "Price": 0.0, "suitableAge": "All"}, {"category": "nature/park", "name": "SEA Life Bray", "hours": {"opening": "1100", "closing": "1700"}, "geoLocation": {"longitude": -6.0982, "latitude": 53.2034}, "duration": 90, "bestTimeToVisit": {"day": "afternoon", "season": "summer"}, "review": 3.5, "wayToGetThere": {"best": "public transportation", "suggested": "public transportation"}, "Price": 25.0, "suitableAge": "All"}, {"category": "shopping", "name": "Stephen's Green Shopping Centre", "hours": {"opening": "900", "closing": "1900"}, "geoLocation": {"longitude": -6.26142, "latitude": 53.34014}, "duration": 30, "bestTimeToVisit": {"day": "afternoon", "season": "all"}, "review": 4.1, "wayToGetThere": {"best": "walk", "suggested": "walk"}, "Price": 0.0, "suitableAge": "All"}, {"category": "shopping", "name": "Powerscourt Centre", "hours": {"opening": "1000", "closing": "1800"}, "geoLocation": {"longitude": -6.26122, "latitude": 53.34214}, "duration": 45, "bestTimeToVisit": {"day": "afternoon", "season": "all"}, "review": 4.3, "wayToGetThere": {"best": "", "suggested": ""}, "Price": 0.0, "suitableAge": "All"}, {"category": "shopping", "name": "Jervis Shopping Centre", "hours": {"opening": "900", "closing": "1830"}, "geoLocation": {"longitude": -6.26522, "latitude": 53.34854}, "duration": 60, "bestTimeToVisit": {"day": "afternoon", "season": "all"}, "review": 4.2, "wayToGetThere": {"best": "", "suggested": ""}, "Price": 0.0, "suitableAge": "All"}, {"category": "shopping", "name": "George's Street Arcade", "hours": {"opening": "900", "closing": "1830"}, "geoLocation": {"longitude": -6.26391, "latitude": 53.34248}, "duration": 30, "bestTimeToVisit": {"day": "afternoon", "season": "all"}, "review": 4.2, "wayToGetThere": {"best": "", "suggested": ""}, "Price": 0.0, "suitableAge": "All"}, {"category": "shopping", "name": "Royal Hibernian Way Shopping Centre", "hours": {"opening": "800", "closing": "1800"}, "geoLocation": {"longitude": -6.25837, "latitude": 53.34136}, "duration": 30, "bestTimeToVisit": {"day": "afternoon", "season": "all"}, "review": 4.4, "wayToGetThere": {"best": "", "suggested": ""}, "Price": 0.0, "suitableAge": "All"}, {"category": "shopping", "name": "Ilac Shopping Centre", "hours": {"opening": "900", "closing": "1830"}, "geoLocation": {"longitude": -6.2628, "latitude": 53.35041}, "duration": 30, "bestTimeToVisit": {"day": "afternoon", "season": "all"}, "review": 4.0, "wayToGetThere": {"best": "", "suggested": ""}, "Price": 0.0, "suitableAge": "All"}, {"category": "shopping", "name": "The Westbury Mall", "hours": {"opening": "800", "closing": "1800"}, "geoLocation": {"longitude": -6.26069, "latitude": 53.34166}, "duration": 45, "bestTimeToVisit": {"day": "afternoon", "season": "all"}, "review": 4.3, "wayToGetThere": {"best": "", "suggested": ""}, "Price": 0.0, "suitableAge": "All"}, {"category": "shopping", "name": "Moore Street Shopping Mall", "hours": {"opening": "1000", "closing": "1900"}, "geoLocation": {"longitude": -6.26298, "latitude": 53.35139}, "duration": 45, "bestTimeToVisit": {"day": "afternoon", "season": "all"}, "review": 3.9, "wayToGetThere": {"best": "", "suggested": ""}, "Price": 0.0, "suitableAge": "All"}, {"category": "shopping", "name": "Point Square Dublin", "hours": {"opening": "800", "closing": "2300"}, "geoLocation": {"longitude": -6.22837, "latitude": 53.34837}, "duration": 30, "bestTimeToVisit": {"day": "afternoon", "season": "all"}, "review": 4.0, "wayToGetThere": {"best": "", "suggested": ""}, "Price": 0.0, "suitableAge": "All"}, {"category": "shopping", "name": "Swan Shopping Center", "hours": {"opening": "900", "closing": "2100"}, "geoLocation": {"longitude": -6.26493, "latitude": 53.32314}, "duration": 30, "bestTimeToVisit": {"day": "afternoon", "season": "all"}, "review": 3.9, "wayToGetThere": {"best": "", "suggested": ""}, "Price": 0.0, "suitableAge": "All"}, {"category": "theatre", "name": "Bord G\u00c3\u00a1is Energy Theatre", "hours": {"opening": "0", "closing": "2359"}, "geoLocation": {"longitude": -6.24027, "latitude": 53.3442}, "duration": 120, "bestTimeToVisit": {"day": "all", "season": "all"}, "review": 4.6, "wayToGetThere": {"best": "", "suggested": ""}, "Price": 0.0, "suitableAge": "All"}, {"category": "theatre", "name": "3Arena", "hours": {"opening": "0", "closing": "2359"}, "geoLocation": {"longitude": -6.22848, "latitude": 53.34751}, "duration": 120, "bestTimeToVisit": {"day": "all", "season": "all"}, "review": 4.5, "wayToGetThere": {"best": "", "suggested": ""}, "Price": 0.0, "suitableAge": "All"}, {"category": "theatre", "name": "The Academy", "hours": {"opening": "0", "closing": "2359"}, "geoLocation": {"longitude": -6.26185, "latitude": 53.34805}, "duration": 120, "bestTimeToVisit": {"day": "all", "season": "all"}, "review": 4.2, "wayToGetThere": {"best": "", "suggested": ""}, "Price": 0.0, "suitableAge": "All"}, {"category": "theatre", "name": "Olympia Theatre", "hours": {"opening": "0", "closing": "2359"}, "geoLocation": {"longitude": -6.26611, "latitude": 53.34432}, "duration": 120, "bestTimeToVisit": {"day": "all", "season": "all"}, "review": 4.5, "wayToGetThere": {"best": "", "suggested": ""}, "Price": 0.0, "suitableAge": "All"}, {"category": "theatre", "name": "The Abbey Theatre Dublin", "hours": {"opening": "0", "closing": "2359"}, "geoLocation": {"longitude": -6.25711, "latitude": 53.34854}, "duration": 120, "bestTimeToVisit": {"day": "all", "season": "all"}, "review": 4.7, "wayToGetThere": {"best": "", "suggested": ""}, "Price": 0.0, "suitableAge": "All"}, {"category": "theatre", "name": "Gaiety Theatre", "hours": {"opening": "0", "closing": "2359"}, "geoLocation": {"longitude": -6.26157, "latitude": 53.34045}, "duration": 120, "bestTimeToVisit": {"day": "all", "season": "all"}, "review": 4.5, "wayToGetThere": {"best": "", "suggested": ""}, "Price": 0.0, "suitableAge": "All"}, {"category": "theatre", "name": "Liberty Hall Theatre", "hours": {"opening": "0", "closing": "2359"}, "geoLocation": {"longitude": -6.26031, "latitude": 53.34981}, "duration": 120, "bestTimeToVisit": {"day": "all", "season": "all"}, "review": 4.3, "wayToGetThere": {"best": "", "suggested": ""}, "Price": 0.0, "suitableAge": "All"}, {"category": "theatre", "name": "Ambassador Theatre", "hours": {"opening": "0", "closing": "2359"}, "geoLocation": {"longitude": -6.26199, "latitude": 53.35281}, "duration": 120, "bestTimeToVisit": {"day": "all", "season": "all"}, "review": 4.0, "wayToGetThere": {"best": "", "suggested": ""}, "Price": 0.0, "suitableAge": "All"}, {"category": "theatre", "name": "National Concert Hall", "hours": {"opening": "0", "closing": "2359"}, "geoLocation": {"longitude": -6.25922, "latitude": 53.33472}, "duration": 120, "bestTimeToVisit": {"day": "all", "season": "all"}, "review": 4.6, "wayToGetThere": {"best": "", "suggested": ""}, "Price": 0.0, "suitableAge": "All"}, {"category": "bar", "name": "Guiness Storehouse", "hours": {"opening": "930", "closing": "1700"}, "geoLocation": {"longitude": -6.2867, "latitude": 53.3419}, "duration": 90, "bestTimeToVisit": {"day": "afternoon", "season": "all"}, "review": 4.5, "wayToGetThere": {"best": "public transportation", "suggested": "public transportation"}, "Price": 20.0, "suitableAge": "All"}, {"category": "bar", "name": "Jameson Distillery Bow St.", "hours": {"opening": "1000", "closing": "1730"}, "geoLocation": {"longitude": -6.2774, "latitude": 53.3484}, "duration": 40, "bestTimeToVisit": {"day": "all", "season": "all"}, "review": 4.5, "wayToGetThere": {"best": "public transportation", "suggested": "public transportation"}, "Price": 20.0, "suitableAge": "All"}, {"category": "restaurant", "name": "Xian Street Food Dublin", "hours": {"opening": "1200", "closing": "2359"}, "geoLocation": {"longitude": -6.25971, "latitude": 53.34107}, "duration": 120, "bestTimeToVisit": {"day": "evening", "season": "all"}, "review": 4.5, "wayToGetThere": {"best": "public transportation", "suggested": "public transportation"}, "Price": 20.0, "suitableAge": "All"}, {"category": "restaurant", "name": "Beshoff Bros", "hours": {"opening": "900", "closing": "2300"}, "geoLocation": {"longitude": -6.26598, "latitude": 53.34439}, "duration": 60, "bestTimeToVisit": {"day": "all", "season": "all"}, "review": 4.5, "wayToGetThere": {"best": "public transportation", "suggested": "public transportation"}, "Price": 20.0, "suitableAge": "All"}, {"category": "restaurant", "name": "Mamas Revenge", "hours": {"opening": "1000", "closing": "2000"}, "geoLocation": {"longitude": -6.2538, "latitude": 53.3419}, "duration": 60, "bestTimeToVisit": {"day": "all", "season": "all"}, "review": 4.5, "wayToGetThere": {"best": "public transportation", "suggested": "public transportation"}, "Price": 20.0, "suitableAge": "All"}, {"category": "restaurant", "name": "The Vintage Teapot", "hours": {"opening": "930", "closing": "2000"}, "geoLocation": {"longitude": -6.2597, "latitude": 53.3504}, "duration": 60, "bestTimeToVisit": {"day": "all", "season": "all"}, "review": 4.5, "wayToGetThere": {"best": "public transportation", "suggested": "public transportation"}, "Price": 15.0, "suitableAge": "All"}, {"category": "restaurant", "name": "Kimchi Hophouse", "hours": {"opening": "1200", "closing": "2230"}, "geoLocation": {"longitude": -6.26104, "latitude": 53.35398}, "duration": 90, "bestTimeToVisit": {"day": "all", "season": "all"}, "review": 4.4, "wayToGetThere": {"best": "public transportation", "suggested": "public transportation"}, "Price": 20.0, "suitableAge": "All"}, {"category": "restaurant", "name": "Brother Hubbard South", "hours": {"opening": "830", "closing": "1600"}, "geoLocation": {"longitude": -6.26553, "latitude": 53.33287}, "duration": 60, "bestTimeToVisit": {"day": "all", "season": "all"}, "review": 4.4, "wayToGetThere": {"best": "public transportation", "suggested": "public transportation"}, "Price": 15.0, "suitableAge": "All"}, {"category": "bar", "name": "Caf\u00c3\u00a9 en Seine", "hours": {"opening": "1200", "closing": "2330"}, "geoLocation": {"longitude": -6.25862, "latitude": 53.3409}, "duration": 120, "bestTimeToVisit": {"day": "night", "season": "all"}, "review": 4.2, "wayToGetThere": {"best": "public transportation", "suggested": "public transportation"}, "Price": 20.0, "suitableAge": "Adult"}, {"category": "bar", "name": "Berlin D2", "hours": {"opening": "1600", "closing": "230"}, "geoLocation": {"longitude": -6.26552, "latitude": 53.34427}, "duration": 120, "bestTimeToVisit": {"day": "night", "season": "all"}, "review": 4.0, "wayToGetThere": {"best": "public transportation", "suggested": "public transportation"}, "Price": 20.0, "suitableAge": "Adult"}, {"category": "bar", "name": "The Living Room", "hours": {"opening": "1000", "closing": "0"}, "geoLocation": {"longitude": -6.2603, "latitude": 53.35253}, "duration": 120, "bestTimeToVisit": {"day": "night", "season": "all"}, "review": 4.2, "wayToGetThere": {"best": "public transportation", "suggested": "public transportation"}, "Price": 20.0, "suitableAge": "Adult"}]